     2.11           OBSERVATION DATA    G                   RINEX VERSION / TYPE
RTKCONV 2.4.2                           20160819 070151 UTC PGM / RUN BY / DATE 
gfzrnx-1.11-7513    FILE CONVERSION     20191001 141729 UTC COMMENT              
MITTE1000                                                   MARKER NAME         
MITTE1000                                                   MARKER NUMBER       
                                                            OBSERVER / AGENCY   
1833082             LEICA GS25          5.70                REC # / TYPE / VERS 
                    LEIAS10         NONE                    ANT # / TYPE        
  4014698.5781   499092.6717  4914521.0611                  APPROX POSITION XYZ 
        0.0000        0.0000        0.0000                  ANTENNA: DELTA H/E/N
     1     1                                                WAVELENGTH FACT L1/2
    17                                                      LEAP SECONDS        
     6    C1    L1    L2    P2    S1    S2                  # / TYPES OF OBSERV 
    31                                                      # OF SATELLITES     
    10.000                                                  INTERVAL            
  2016     8    16     8     0    0.0000000     GPS         TIME OF FIRST OBS   
  2016     8    16     8    12   20.0000000     GPS         TIME OF LAST OBS    
                                                            END OF HEADER      
 16 08 16 08 00 00.0000000  0  8G02G06G12G14G25G29G31G32            
  22630705.840   118925158.473    92668926.767    22630698.520          47.750  
        41.000  
  24457735.340   128526254.982   100150336.499    24457734.920          42.000  
        39.250  
  21719457.440   114136510.590    88937522.663    21719452.140          49.000  
        43.500  
  22861780.520   120139455.042    93615152.759    22861776.520          46.000  
        42.000  
  20237440.400   106348463.067    82868917.488    20237437.600          50.500  
        46.500  
  20409762.540   107254024.329    83574546.598    20409758.080          49.750  
        47.750  
  22174665.900   116528652.324    90801520.567    22174659.280          48.750  
        44.750  
  23663895.600   124354602.715    96899687.798    23663893.560          46.750  
        41.000  
 16 08 16 08 00 10.0000000  0  8G02G06G12G14G25G29G31G32            
  22631824.460   118931036.835    92673507.302    22631817.120          47.500  
        40.000  
  24462791.580   128552825.828   100171041.022    24462791.220          42.250  
        39.000  
  21724273.620   114161819.734    88957244.058    21724268.340          49.250  
        43.000  
  22864594.960   120154245.290    93626677.619    22864591.020          46.500  
        41.000  
  20238241.840   106352674.647    82872199.239    20238239.040          50.750  
        46.000  
  20406818.080   107238551.051    83562489.498    20406813.580          50.000  
        47.250  
  22170052.640   116504409.608    90782630.131    22170046.080          48.500  
        44.250  
  23669380.080   124383423.854    96922145.811    23669378.000          46.750  
        41.000  
 16 08 16 08 00 20.0000000  0  8G02G06G12G14G25G29G31G32            
  22632954.300   118936974.163    92678133.781    22632946.940          47.500  
        41.000  
  24467856.360   128579441.621   100191780.585    24467856.060          42.250  
        38.250  
  21729095.080   114187156.664    88976987.120    21729089.820          49.000  
        43.250  
  22867420.240   120169092.344    93638246.742    22867416.320          46.500  
        40.750  
  20239051.960   106356931.838    82875516.528    20239049.160          50.750  
        46.250  
  20403884.220   107223133.518    83550475.846    20403879.680          50.250  
        47.000  
  22165447.400   116480209.040    90763772.551    22165440.900          48.250  
        43.750  
  23674870.540   124412276.464    96944628.355    23674868.420          46.500  
        40.750  
 16 08 16 08 00 30.0000000  0  8G02G06G12G14G25G29G31G32            
  22634095.300   118942970.119    92682805.938    22634087.940          47.000  
        36.250  
  24472929.640   128606102.022   100212554.886    24472929.420          42.500  
        33.500  
  21733921.780   114212521.104    88996751.607    21733916.540          49.000  
        40.500  
  22870256.280   120183995.943    93649859.909    22870252.400          47.250  
        38.250  
  20239870.680   106361234.251    82878869.056    20239867.880          50.750  
        43.000  
  20400960.900   107207771.365    83538505.335    20400956.320          50.000  
        45.000  
  22160850.100   116456050.283    90744947.548    22160843.660          48.000  
        41.000  
  23680366.900   124441160.109    96967135.084    23680364.760          46.500  
        38.250  
 16 08 16 08 00 40.0000000  0  8G02G06G12G14G25G29G31G32            
  22635246.800   118949021.261    92687521.116    22635239.400          47.000  
        39.500  
  24478010.280   128632803.522   100233361.2091   24478010.600          43.750  
        36.250  
  21738753.040   114237909.489    89016534.752    21738747.820          49.250  
        41.750  
  22873102.180   120198952.567    93661514.3911   22873098.880          47.500  
        40.250  
  20240697.400   106365578.584    82882254.244    20240694.580          50.750  
        45.000  
  20398047.520   107192461.326    83526575.422    20398042.900          50.250  
        46.500  
  22156260.160   116431930.167    90726152.651    22156253.780          48.000  
        42.750  
  23685868.180   124470071.331    96989663.2821   23685866.380          46.250  
        39.750  
 16 08 16 08 00 50.0000000  0  8G02G06G12G14G25G29G31G32            
  22636409.620   118955131.869    92692282.600    22636402.220          47.250  
        40.750  
  24483100.060   128659550.278   100254202.825    24483100.200          43.250  
        36.250  
  21743589.640   114263325.978    89036339.791    21743584.440          48.750  
        42.750  
  22875959.320   120213966.393    93673213.467    22875955.860          47.750  
        39.500  
  20241532.860   106369969.032    82885675.378    20241530.040          50.750  
        45.750  
  20395144.860   107177207.653    83514689.455    20395140.200          50.250  
        47.000  
  22151678.380   116407853.048    90707391.275    22151672.060          48.000  
        43.750  
  23691375.800   124499014.250    97012216.200    23691374.040          46.500  
        40.750  
 16 08 16 08 01 00.0000000  0  8G02G06G12G14G25G29G31G32            
  22637583.100   118961298.443    92697087.708    22637575.680          47.500  
        40.500  
  24488197.820   128686338.775   100275076.952    24488197.760          43.000  
        36.750  
  21748430.960   114288767.218    89056164.134    21748425.760          48.750  
        42.750  
  22878826.680   120229033.959    93684954.395    22878823.060          47.750  
        39.500  
  20242376.460   106374402.182    82889129.781    20242373.640          50.750  
        46.250  
  20392252.260   107162006.948    83502844.752    20392247.580          50.250  
        47.750  
  22147104.140   116383815.467    90688660.699    22147097.880          47.750  
        43.750  
  23696888.800   124527985.311    97034791.044    23696887.080          46.750  
        41.250  
 16 08 16 08 01 10.0000000  0  8G02G06G12G14G25G29G31G32            
  22638767.640   118967523.237    92701938.191    22638760.220          47.250  
        40.750  
  24493303.920   128713171.217   100295985.322    24493303.680          41.750  
        35.250  
  21753277.420   114314235.471    89076009.506    21753272.220          48.500  
        42.500  
  22881704.680   120244157.486    93696738.953    22881700.860          48.000  
        39.750  
  20243228.640   106378880.329    82892619.240    20243225.800          50.500  
        46.250  
  20389370.200   107146861.465    83491043.073    20389365.480          50.250  
        47.500  
  22142537.840   116359819.701    90669962.710    22142531.660          47.750  
        44.000  
  23702407.560   124556986.696    97057389.511    23702405.880          46.500  
        42.000  
 16 08 16 08 01 20.0000000  0  8G02G06G12G14G25G29G31G32            
  22639963.140   118973805.677    92706833.596    22639955.720          47.000  
        41.500  
  24498418.200   128740046.964   100316927.453    24498417.880          41.250  
        34.750  
  21758128.880   114339730.132    89095875.467    21758123.720          48.250  
        42.750  
  22884593.220   120259336.317    93708566.596    22884589.180          48.000  
        40.250  
  20244089.260   106383402.912    82896143.325    20244086.420          50.750  
        46.000  
  20386498.540   107131770.716    83479284.038    20386493.800          50.250  
        47.250  
  22137979.440   116335865.473    90651297.082    22137973.340          47.750  
        44.500  
  23707931.960   124586017.737    97080011.082    23707930.300          46.500  
        41.250  
 16 08 16 08 01 30.0000000  0  8G02G06G12G14G25G29G31G32            
  22641169.800   118980146.754    92711774.694    22641162.380          47.250  
        38.000  
  24503540.840   128766966.808   100337903.951    24503540.500          41.000  
        32.000  
  21762985.520   114365251.994    89115762.631    21762980.360          48.250  
        40.000  
  22887492.420   120274571.319    93720438.030    22887488.180          48.000  
        37.500  
  20244958.500   106387970.807    82899702.728    20244955.660          50.500  
        44.000  
  20383637.480   107116735.742    83467568.484    20383632.700          50.500  
        45.750  
  22133429.120   116311953.769    90632664.601    22133423.120          48.000  
        42.000  
  23713462.180   124615079.247    97102656.402    23713460.540          46.250  
        39.750  
 16 08 16 08 01 40.0000000  0  8G02G06G12G14G25G29G31G32            
  22642387.040   118986544.340    92716759.7781   22642379.820          46.750  
        35.500  
  24508671.240   128793928.658   100358909.1251   24508670.720          41.250  
        31.000  
  21767846.980   114390799.029    89135669.382    21767841.840          48.000  
        36.000  
  22890401.940   120289860.395    93732351.559    22890397.540          48.250  
        33.250  
  20245836.000   106392582.051    82903295.892    20245833.160          50.500  
        40.500  
  20380786.660   107101754.500    83455894.775    20380781.860          50.250  
        40.750  
  22128886.560   116288082.610    90614063.680    22128880.640          48.250  
        38.000  
  23718997.640   124644169.079    97125323.779    23718996.260          46.000  
        35.500  
 16 08 16 08 01 50.0000000  0  8G02G06G12G14G25G29G31G32            
  22643615.580   118993000.311    92721790.424    22643608.320          47.000  
        40.250  
  24513810.200   128820934.272   100379952.514    24513809.820          41.000  
        35.000  
  21772713.580   114416373.158    89155597.265    21772708.440          48.000  
        41.750  
  22893322.060   120305205.340    93744308.667    22893317.500          48.500  
        39.250  
  20246722.080   106397238.441    82906924.258    20246719.220          50.750  
        45.750  
  20377946.420   107086828.862    83444264.420    20377941.580          50.250  
        46.750  
  22124352.040   116264253.891    90595495.849    22124346.220          48.500  
        43.250  
  23724538.900   124673288.920    97148014.552    23724537.640          45.500  
        40.500  
 16 08 16 08 02 00.0000000  0  8G02G06G12G14G25G29G31G32            
  22644854.920   118999513.150    92726865.357    22644847.620          47.750  
        39.750  
  24518957.220   128847982.090   100401028.739    24518956.880          40.500  
        35.750  
  21777585.040   114441972.869    89175545.079    21777579.920          48.250  
        40.750  
  22896252.540   120320604.618    93756308.094    22896247.820          48.750  
        39.750  
  20247616.480   106401938.568    82910586.691    20247613.640          50.750  
        45.750  
  20375116.500   107071957.527    83432676.362    20375111.640          50.250  
        47.000  
  22119825.400   116240466.342    90576960.084    22119819.640          48.250  
        43.250  
  23730085.580   124702437.325    97170727.582    23730084.420          45.250  
        40.000  
 16 08 16 08 02 10.0000000  0  8G02G06G12G14G25G29G31G32            
  22646105.500   119006084.779    92731986.080    22646098.160          47.750  
        40.250  
  24524112.660   128875074.020   100422139.312    24524112.420          40.250  
        36.250  
  21782461.720   114467600.000    89195514.254    21782456.620          48.250  
        41.250  
  22899193.720   120336060.142    93768351.349    22899188.840          48.750  
        39.750  
  20248519.600   106406684.349    82914284.694    20248516.740          50.750  
        46.250  
  20372297.280   107057142.357    83421132.074    20372292.400          50.250  
        47.250  
  22115306.940   116216721.903    90558457.918    22115301.260          48.250  
        43.750  
  23735638.060   124731616.067    97193464.252    23735636.940          44.500  
        40.750  
 16 08 16 08 02 20.0000000  0  8G02G06G12G14G25G29G31G32            
  22647366.380   119012710.811    92737149.220    22647359.040          47.250  
        40.500  
  24529275.600   128902205.532   100443280.731    24529275.460          39.500  
        35.000  
  21787342.760   114493250.168    89215501.399    21787337.680          48.000  
        41.750  
  22902144.760   120351567.392    93780434.916    22902139.720          48.750  
        40.500  
  20249430.540   106411471.421    82918014.876    20249427.680          50.750  
        46.250  
  20369487.900   107042378.961    83409628.129    20369483.020          50.000  
        47.000  
  22110795.880   116193016.320    90539986.022    22110790.260          48.250  
        43.750  
  23741195.440   124760820.677    97216221.081    23741194.360          44.000  
        41.250  
 16 08 16 08 02 30.0000000  0  8G02G06G12G14G25G29G31G32            
  22648638.240   119019394.378    92742357.174    22648630.900          47.250  
        37.750  
  24534446.660   128929379.657   100464455.325    24534446.600          39.250  
        29.000  
  21792228.820   114518926.476    89235508.881    21792223.740          48.000  
        38.500  
  22905106.220   120367129.420    93792561.152    22905101.020          49.000  
        35.750  
  20250349.940   106416302.863    82921779.626    20250347.100          50.750  
        43.750  
  20366688.960   107027670.468    83398166.964    20366684.080          50.000  
        44.250  
  22106292.820   116169352.772    90521546.892    22106287.260          47.750  
        41.000  
  23746758.320   124790054.106    97239000.360    23746757.280          44.250  
        37.250  
 16 08 16 08 02 40.0000000  0  8G02G06G12G14G25G29G31G32            
  22649921.640   119026138.449    92747612.231    22649914.320          47.500  
        28.000  
  24539625.940   128956599.332                                          38.250  
                
  21797120.120   114544631.844    89255540.9921   21797114.960          47.750  
        28.500  
  22908078.680   120382749.225    93804732.410    22908073.320          49.250  
        24.250  
  20251278.380   106421181.696    82925581.299    20251275.520          50.750  
        33.750  
  20363901.060   107013019.929    83386750.953    20363896.180          50.000  
        35.000  
  22101798.360   116145734.301    90503142.862    22101792.860          47.750  
        29.750  
  23752326.740   124819319.270    97261803.3801   23752326.000          44.250  
        28.750  
 16 08 16 08 02 50.0000000  0  9G02G06G12G14G25G26G29G31G32         
  22651214.980   119032935.183    92752908.420    22651207.660          47.250  
        40.250  
  24544812.700   128983856.544   100506880.793    24544810.820          37.500  
        34.500  
  21802015.760   114570358.464    89275587.738    21802010.640          47.750  
        41.250  
  22911060.620   120398418.884    93816942.521    22911055.100          49.250  
        38.750  
  20252214.300   106426100.060    82929413.803    20252211.440          50.750  
        46.250  
  25698449.820   135046258.244   105230850.265    25698448.120          38.000  
        33.250  
  20361122.720   106998419.677    83375374.136    20361117.840          50.000  
        47.000  
  22097310.960   116122153.196    90484768.010    22097305.500          47.750  
        43.750  
  23757900.180   124848608.236    97284625.923    23757899.500          44.500  
        39.750  
 16 08 16 08 03 00.0000000  0  9G02G06G12G14G25G26G29G31G32         
  22652519.900   119039792.471    92758251.739    22652512.600          47.750  
        40.250  
  24550008.160   129011159.373   100528155.691    24550007.560          36.500  
        35.250  
  21806916.980   114596114.334    89295657.218    21806911.860          48.000  
        41.000  
  22914053.540   120414146.275    93829197.625    22914047.860          49.250  
        38.500  
  20253159.300   106431066.034    82933283.383    20253156.440          50.750  
        46.500  
  25692092.960   135012854.162   105204821.124    25692091.420          36.250  
        34.250  
  20358355.440   106983877.512    83364042.570    20358350.560          50.000  
        47.500  
  22092832.260   116098617.582    90466428.575    22092826.840          47.750  
        44.750  
  23763479.660   124877928.885    97307473.169    23763479.060          44.250  
        40.000  
 16 08 16 08 03 10.0000000  0  9G02G06G12G14G25G26G29G31G32         
  22653835.320   119046705.005    92763638.117    22653828.040          47.500  
        40.500  
  24555211.260   129038502.216   100549461.766    24555211.180          36.250  
        36.250  
  21811822.720   114621894.066    89315745.309    21811817.600          47.500  
        41.250  
  22917056.400   120429925.988    93841493.503    22917050.560          49.000  
        38.000  
  20254112.320   106436074.191    82937185.837    20254109.480          50.750  
        46.250  
  25685735.760   134979447.639   105178790.036    25685735.000          38.000  
        30.250  
  20355598.200   106969388.168    83352752.182    20355593.320          50.000  
        47.250  
  22088361.180   116075122.098    90448120.411    22088355.820          48.250  
        44.000  
  23769064.140   124907275.757    97330340.849    23769063.580          43.750  
        40.000  
 16 08 16 08 03 20.0000000  0  9G02G06G12G14G25G26G29G31G32         
  22655161.860   119053675.999    92769070.066    22655154.600          47.500  
        41.000  
  24560422.660   129065888.328   100570801.539    24560422.920          37.500  
        36.000  
  21816733.600   114647700.847    89335854.478    21816728.500          47.750  
        41.250  
  22920069.820   120445761.115    93853832.553    22920063.820          48.750  
        37.750  
  20255074.000   106441127.801    82941123.706    20255071.140          50.500  
        46.750  
  25679378.780   134946041.846   105152759.524    25679378.400          39.000  
        25.500  
  20352851.640   106954954.943    83341505.517    20352846.760          50.000  
        47.500  
  22083898.380   116051670.117    90429846.137    22083893.060          48.000  
        44.500  
  23774654.200   124936651.980    97353231.409    23774653.700          43.750  
        41.250  
 16 08 16 08 03 30.0000000  0  9G02G06G12G14G25G26G29G31G32         
  22656498.920   119060702.192    92774545.005    22656491.660          47.750  
        40.750  
  24565641.680   129093314.316   100592172.397    24565642.160          38.500  
        35.750  
  21821649.020   114673531.367    89355982.129    21821643.920          47.500  
        40.750  
  22923093.140   120461648.356    93866212.220    22923087.000          48.500  
        37.750  
  20256043.700   106446223.577    82945094.435    20256040.840          50.500  
        46.750  
  25673021.340   134912633.576   105126727.158    25673021.120          39.250  
        34.750  
  20350115.140   106940574.572    83330300.034    20350110.280          50.000  
        47.750  
  22079443.280   116028258.511    90411603.331    22079438.000          48.250  
        44.000  
  23780249.180   124966054.164    97376142.187    23780248.720          43.250  
        40.000  
 16 08 16 08 03 40.0000000  0  9G02G06G12G14G25G26G29G31G32         
  22657847.340   119067788.208    92780066.574    22657840.120          47.750  
        28.000  
  24570869.400   129120784.736                                          40.000  
                
  21826569.820   114699390.266    89376131.935    21826564.720          47.750  
        23.750  
  22926127.220   120477592.399    93878636.192    22926120.940          48.750  
        22.750  
  20257022.320   106451366.234    82949101.688    20257019.480          50.750  
        33.000  
  25666664.360   134879227.581                                          35.750  
                
  20347389.600   106926251.750    83319139.385    20347384.760          50.250  
        32.250  
  22074996.780   116004892.007    90393395.630    22074991.560          49.000  
        29.000  
  23785849.520   124995486.924    97399076.818    23785849.300          43.250  
        27.250  
 16 08 16 08 03 50.0000000  0  9G02G06G12G14G25G26G29G31G32         
  22659206.360   119074929.814    92785631.449    22659199.140          48.000  
        41.750  
  24576104.520   129148295.270   100635048.630    24576105.700          40.000  
        39.000  
  21831495.240   114725273.313    89396300.506    21831490.140          47.500  
        41.500  
  22929171.340   120493588.877    93891100.933    22929164.940          48.750  
        38.500  
  20258009.040   106456551.485    82953142.145    20258006.180          50.750  
        47.500  
  25660307.060   134845819.754   105074693.420    25660310.840          38.250  
        33.250  
  20344674.200   106911982.274    83308020.325    20344669.360          50.250  
        48.250  
  22070558.040   115981566.423    90375219.875    22070552.820          49.000  
        45.250  
  23791455.300   125024945.854    97422031.795    23791455.020          43.500  
        40.750  
 16 08 16 08 04 00.0000000  0  9G02G06G12G14G25G26G29G31G32         
  22660576.560   119082130.135    92791242.073    22660569.340          47.750  
        41.500  
  24581347.900   129175848.976   100656519.018    24581349.420          40.250  
        37.000  
  21836425.820   114751183.544    89416490.284    21836420.720          46.750  
        42.000  
  22932226.000   120509640.900    93903608.991    22932219.500          48.750  
        39.000  
  20259004.480   106461782.476    82957218.232    20259001.620          50.750  
        47.250  
  25653949.920   134812413.086   105048662.246    25653949.300          39.750  
        35.250  
  20341969.560   106897769.289    83296945.268    20341964.740          50.250  
        47.500  
  22066127.720   115958285.018    90357078.513    22066122.540          48.750  
        44.500  
  23797066.660   125054433.984    97445009.542    23797066.360          43.250  
        41.000  
 16 08 16 08 04 10.0000000  0  9G02G06G12G14G25G26G29G31G32         
  22661957.140   119089385.124    92796895.297    22661949.940          48.000  
        42.000  
  24586598.700   129203441.704   100678019.820    24586600.380          40.250  
        38.750  
  21841360.820   114777116.944    89436698.096    21841355.720          46.750  
        42.000  
  22935290.440   120525744.297    93916157.080    22935283.840          48.750  
        39.000  
  20260007.840   106467055.187    82961326.836    20260004.980          50.750  
        47.500  
  25647592.360   134779003.555   105022628.896    25647591.920          38.750  
        33.000  
  20339274.900   106883608.758    83285911.090    20339270.080          50.250  
        48.250  
  22061705.080   115935043.872    90338968.533    22061699.920          49.000  
        44.750  
  23802682.800   125083947.180    97468006.822    23802682.480          42.750  
        41.250  
 16 08 16 08 04 20.0000000  0  9G02G06G12G14G25G26G29G31G32         
  22663349.220   119096700.517    92802595.593    22663342.020          47.750  
        41.250  
  24591857.980   129231079.202   100699555.498    24591859.720          40.750  
        39.250  
  21846301.280   114803079.287    89456928.493    21846296.200          46.750  
        40.750  
  22938365.740   120541904.889    93928749.733    22938359.080          48.250  
        38.250  
  20261020.260   106472375.421    82965472.461    20261017.400          50.750  
        47.250  
  25641235.440   134745597.215   104996597.908    25641235.180          38.000  
        36.250  
  20336591.340   106869506.579    83274922.383    20336586.540          50.000  
        47.750  
  22057291.200   115911848.847    90320894.492    22057286.060          48.750  
        44.250  
  23808304.800   125113491.142    97491028.082    23808304.460          42.500  
        40.250  
 16 08 16 08 04 30.0000000  0  9G02G06G12G14G25G26G29G31G32         
  22664751.920   119104071.624    92808339.300    22664744.720          47.750  
        41.250  
  24597124.860   129258756.646   100721122.332    24597126.560          41.250  
        40.250  
  21851246.360   114829065.857    89477177.752    21851241.280          47.000  
        41.500  
  22941451.000   120558117.846    93941383.207    22941444.260          48.000  
        37.750  
  20262040.820   106477738.498    82969651.481    20262037.960          50.500  
        47.250  
  25634878.140   134712189.189   104970565.684    25634877.840          39.250  
        35.250  
  20333917.980   106855457.995    83263975.437    20333913.180          50.000  
        48.000  
  22052885.220   115888695.240    90302852.713    22052880.080          48.500  
        44.250  
  23813931.760   125143061.092    97514069.578    23813931.400          43.250  
        40.500  
 16 08 16 08 04 40.0000000  0  9G02G06G12G14G25G26G29G31G32         
  22666165.240   119111498.568    92814126.500    22666158.040          48.000  
        19.750  
  24602399.700   129286474.144                                          41.500  
                
  21856196.100   114855076.856    89497446.069    21856190.980          47.250  
        21.500  
  22944546.840   120574383.273                                          48.000  
                
  20263069.600   106483144.550    82973863.938    20263066.740          50.500  
        29.000  
  25628520.580   134678779.739                                          38.500  
                
  20331254.880   106841463.282    83253070.449    20331250.100          50.250  
        29.750  
  22048487.160   115865583.347    90284843.461    22048482.020          48.750  
        27.000  
  23819563.480   125172657.048                                          43.000  
                
 16 08 16 08 04 50.0000000  0  9G02G06G12G14G25G26G29G31G32         
  22667589.380   119118982.482    92819958.120    22667582.200          48.000  
        41.500  
  24607682.080   129314232.813   100764345.434    24607683.120          41.250  
        37.500  
  21861150.720   114881113.465    89517734.299    21861145.600          47.000  
        40.750  
  22947652.220   120590702.308    93966764.703    22947643.740          48.000  
        37.000  
  20264106.720   106488594.786    82978110.912    20264103.860          50.500  
        47.250  
  25622162.900   134645370.099   104918499.8851   25622165.160          34.500  
        32.500  
  20328602.260   106827523.654    83242208.415    20328597.460          50.000  
        47.500  
  22044097.320   115842514.511    90266867.734    22044092.180          49.250  
        43.000  
  23825200.560   125202280.082    97560208.207    23825199.720          42.500  
        41.000  
 16 08 16 08 05 00.0000000  0  9G02G06G12G14G25G26G29G31G32         
  22669024.840   119126525.739    92825835.970    22669017.640          47.750  
        42.000  
  24612972.620   129342034.835   100786009.337    24612973.900          40.750  
        37.500  
  21866110.600   114907177.771    89538044.136    21866105.480          47.500  
        40.750  
  22950768.220   120607077.151    93979524.311    22950759.740          47.750  
        36.750  
  20265152.700   106494091.509    82982394.065    20265149.860          50.750  
        47.250  
  25615805.560   134611962.635   104892468.039    25615804.780          34.000  
        32.000  
  20325960.560   106813641.455    83231391.112    20325955.780          50.000  
        47.750  
  22039716.120   115819491.097    90248927.405    22039710.980          49.250  
        43.250  
  23830843.260   125231932.400    97583313.899    23830842.480          42.750  
        39.750  
 16 08 16 08 05 10.0000000  0  9G02G06G12G14G25G26G29G31G32         
  22670470.880   119134124.659    92831757.192    22670463.680          48.250  
        42.750  
  24618270.720   129369876.489   100807704.098    24618272.100          40.750  
        39.250  
  21871075.060   114933266.119    89558372.698    21871069.920          47.500  
        42.500  
  22953894.100   120623504.084    93992324.515    22953885.600          47.500  
        38.750  
  20266206.860   106499631.078    82986710.604    20266204.020          50.500  
        48.750  
  25609447.780   134578553.616   104866435.011    25609447.900          34.000  
        23.500  
  20323329.120   106799813.113    83220615.778    20323324.320          50.250  
        49.000  
  22035342.900   115796509.616    90231019.753    22035337.740          49.250  
        44.750  
  23836490.820   125261610.299    97606439.523    23836490.100          42.750  
        42.750  
 16 08 16 08 05 20.0000000  0  8G02G06G12G14G25G29G31G32            
  22671927.900   119141781.225    92837723.337    22671920.680          48.250  
        41.500  
  24623576.680   129397759.723   100829431.287    24623578.140          40.250  
        39.750  
  21876044.500   114959380.653    89578721.679    21876039.340          47.750  
        41.000  
  22957030.280   120639985.097    94005166.871    22957021.760          47.250  
        36.750  
  20267269.560   106505215.594    82991062.173    20267266.720          50.500  
        47.500  
  20320708.280   106786040.556    83209883.921    20320703.480          50.000  
        47.750  
  22030978.040   115773572.087    90213146.361    22030972.860          49.000  
        43.000  
  23842143.580   125291315.675    97629586.536    23842142.940          42.250  
        41.000  
 16 08 16 08 05 30.0000000  0  8G02G06G12G14G25G29G31G32            
  22673395.320   119149492.535    92843732.148    22673388.100          48.250  
        41.250  
  24628890.000   129425681.555   100851188.546    24628891.520          40.500  
        40.000  
  21881018.380   114985518.335    89599088.681    21881013.200          47.750  
        40.500  
  22960176.180   120656517.197    94018049.014    22960167.680          47.000  
        35.750  
  20268340.260   106510842.050    82995446.416    20268337.400          50.750  
        47.000  
  20318097.540   106772320.975    83199193.331    20318092.740          50.000  
        47.750  
  22026621.000   115750675.711    90195305.031    22026615.800          49.000  
        43.000  
  23847801.000   125321045.497    97652752.610    23847800.420          42.250  
        41.750  
 16 08 16 08 05 40.0000000  0  8G02G06G12G14G25G29G31G32            
  22674873.880   119157262.018    92849786.217    22674866.660          48.000  
        18.500  
  24634211.200   129453645.333   100872984.3401   24634213.040          41.250  
        20.250  
  21885997.640   115011682.578                                          47.750  
                
  22963332.040   120673103.821                                          47.500  
                
  20269419.600   106516513.965    82999866.065    20269416.760          50.500  
        20.500  
  20315497.540   106758657.820    83188546.708    20315492.720          50.250  
        17.500  
  22022273.480   115727824.053                                          49.000  
                
  23853463.660   125350803.139                                          41.750  
                
 16 08 16 08 05 50.0000000  0  8G02G06G12G14G25G29G31G32            
  22676362.940   119165087.223    92855883.829    22676355.680          48.000  
        42.000  
  24639540.080   129481648.555   100894805.160    24639541.580          41.250  
        40.000  
  21890981.200   115037871.026    89639885.947    21890975.680          47.500  
        40.750  
  22966498.160   120689742.419    94043935.771    22966489.920          47.250  
        36.750  
  20270507.100   106522228.879    83004319.261    20270504.260          50.500  
        47.000  
  20312907.800   106745048.718    83177942.221    20312902.980          50.250  
        47.750  
  22017933.080   115705014.776    90159723.092    22017925.380          48.750  
        43.000  
  23859131.260   125380586.068    97699152.799    23859131.160          42.500  
        41.750  
 16 08 16 08 06 00.0000000  0  8G02G06G12G14G25G29G31G32            
  22677863.020   119172970.060    92862026.274    22677855.760          47.750  
        42.500  
  24644876.880   129509692.995   100916657.950    24644878.340          42.000  
        39.000  
  21895969.680   115064085.511    89660312.812    21895964.140          47.250  
        40.750  
  22969674.500   120706434.753    94056942.791    22969666.340          47.000  
        37.000  
  20271603.160   106527988.695    83008807.425    20271600.320          50.500  
        47.250  
  20310328.720   106731495.527    83167381.289    20310323.900          50.250  
        47.750  
  22013601.080   115682249.842    90141984.190    22013593.300          48.750  
        42.250  
  23864804.000   125410395.995    97722381.306    23864803.800          44.000  
        41.000  
 16 08 16 08 06 10.0000000  0  9G02G06G12G14G25G26G29G31G32         
  22679374.120   119180910.876    92868213.917    22679366.860          47.500  
        41.750  
  24650221.600   129537779.039   100938543.150    24650223.040          41.750  
        37.500  
  21900963.180   115090326.373    89680760.212    21900957.620          47.250  
        39.500  
  22972861.180   120723181.250    94069992.003    22972853.080          46.500  
        36.750  
  20272707.860   106533793.866    83013330.934    20272705.020          50.750  
        46.750  
  25571300.180   134378085.4031  104710199.5321   25571296.240          37.250  
        30.250  
  20307760.380   106717998.767    83156864.333    20307755.540          50.250  
        47.000  
  22009277.600   115659529.738    90124280.229    22009269.760          48.750  
        42.500  
  23870482.020   125440233.327    97745631.142    23870481.680          44.500  
        39.500  
 16 08 16 08 06 20.0000000  0  9G02G06G12G14G25G26G29G31G32         
  22680895.380   119188905.122    92874443.190    22680888.120          47.500  
        41.750  
  24655573.360   129565901.976   100960457.105    24655574.760          41.500  
        36.750  
  21905960.820   115116589.114    89701224.665    21905955.300          47.250  
        40.250  
  22976057.280   120739977.279    94083079.822    22976049.300          46.000  
        37.250  
  20273820.300   106539639.781    83017886.190    20273817.460          50.750  
        47.000  
  25564942.520   134344673.465   104684164.194    25564937.660          36.250  
        31.500  
  20305201.900   106704553.869    83146387.787    20305197.060          50.000  
        47.250  
  22004961.800   115636849.961    90106607.682    22004953.920          49.000  
        43.000  
  23876164.320   125470093.293    97768898.629    23876163.820          44.250  
        41.500  
 16 08 16 08 06 30.0000000  0  8G02G06G12G14G25G29G31G32            
  22682427.420   119196956.070    92880716.654    22682420.180          47.500  
        41.750  
  24660932.780   129594065.149   100982402.399    24660934.160          40.750  
        38.000  
  21910963.240   115142877.003    89721708.725    21910957.760          46.750  
        40.250  
  22979263.400   120756826.037    94096208.706    22979255.560          45.500  
        37.000  
  20274941.160   106545529.848    83022475.844    20274938.300          50.500  
        46.500  
  20302653.940   106691164.225    83135954.296    20302649.100          50.250  
        47.500  
  22000654.340   115614214.083    90088969.339    22000646.440          49.000  
        43.000  
  23881851.580   125499979.236    97792186.367    23881850.920          44.750  
        40.000  
 16 08 16 08 06 40.0000000  0  9G02G06G12G14G25G26G29G31G32         
  22683970.940   119205067.980                                          47.750  
                
  24666300.480   129622272.524   101004382.260    24666301.820          39.750  
        23.500  
  21915971.180   115169194.176                                          46.250  
                
  22982479.600   120773731.712                                          46.250  
                
  20276071.180   106551468.203    83027103.167    20276068.300          50.500  
        19.750  
  25552226.920   134277846.2091                                         38.000  
                
  20300117.300   106677834.026    83125567.108    20300112.460          50.250  
        22.750  
  21996356.040   115591626.298    90071368.497    21996348.100          49.000  
        21.500  
  23887545.340   125529895.186    97815497.499    23887543.320          44.750  
        26.750  
 16 08 16 08 06 50.0000000  0  9G02G06G12G14G25G26G29G31G32         
  22685524.900   119213234.176    92893403.873    22685518.380          47.750  
        40.000  
  24671675.560   129650517.383   101026391.126    24671676.660          40.000  
        36.750  
  21920983.400   115195533.896    89762741.050    21920978.300          46.750  
        38.750  
  22985706.040   120790687.544    94122596.255    22985699.560          46.500  
        37.250  
  20277209.160   106557448.142    83031762.813    20277206.300          50.750  
        46.250  
  25545869.960   134244436.167   104606075.4601   25545868.620          38.250  
        26.750  
  20297590.660   106664556.548    83115221.042    20297585.800          50.250  
        46.500  
  21992065.640   115569079.986    90053799.928    21992057.700          49.250  
        43.250  
  23893242.660   125559834.298    97838826.654    23893240.500          44.750  
        39.500  
 16 08 16 08 07 00.0000000  0  9G02G06G12G14G25G26G29G31G32         
  22687089.800   119221457.741    92899811.836    22687083.300          47.750  
        41.000  
  24677057.980   129678802.882   101048431.742    24677059.320          39.250  
        39.500  
  21926000.580   115221899.478    89783285.625    21925995.500          46.500  
        40.250  
  22988942.700   120807696.730    94135850.179    22988936.380          46.500  
        38.000  
  20278355.640   106563472.959    83036457.479    20278352.780          50.500  
        47.000  
  25539512.600   134211027.122   104580042.447    25539510.120          37.000  
        33.750  
  20295074.740   106651335.231    83104918.717    20295069.860          50.250  
        47.500  
  21987783.740   115546578.510    90036266.324    21987775.840          49.250  
        44.500  
  23898945.000   125589799.829    97862176.411    23898942.740          44.500  
        39.500  
 16 08 16 08 07 10.0000000  0  9G02G06G12G14G25G26G29G31G32         
  22688665.300   119229737.076    92906263.261    22688658.820          47.500  
        40.250  
  24682447.860   129707127.429   101070502.777    24682449.360          40.250  
        38.750  
  21931022.380   115248289.299    89803849.106    21931017.320          46.500  
        38.500  
  22992189.260   120824757.583    94149144.344    22992183.040          46.750  
        37.500  
  20279510.380   106569541.122    83041185.916    20279507.520          50.500  
        46.250  
  25533155.200   134177617.590   104554008.991    25533153.020          37.500  
        35.000  
  20292569.160   106638168.367    83094658.827    20292564.280          50.250  
        47.000  
  21983510.100   115524120.423    90018766.520    21983502.240          49.000  
        44.000  
  23904652.020   125619790.038    97885545.397    23904649.700          44.000  
        39.750  
 16 08 16 08 07 20.0000000  0  9G02G06G12G14G25G26G29G31G32         
  22690251.460   119238072.508    92912758.397    22690244.980          47.000  
        41.250  
  24687845.300   129735491.241   101092604.434    24687846.880          40.500  
        39.250  
  21936048.860   115274703.693    89824431.748    21936043.820          46.250  
        40.000  
  22995445.720   120841870.325    94162478.938    22995439.600          46.750  
        38.250  
  20280673.420   106575652.917    83045948.354    20280670.540          50.500  
        46.750  
  25526797.620   134144207.766   104527975.325    25526795.780          39.250  
        36.000  
  20290074.040   106625056.344    83084441.668    20290069.140          50.250  
        47.500  
  21979244.780   115501706.046    90001300.774    21979236.960          49.000  
        44.000  
  23910363.780   125649805.172    97908933.790    23910361.400          43.250  
        40.500  
 16 08 16 08 07 30.0000000  0  9G02G06G12G14G25G26G29G31G32         
  22691848.460   119246464.884    92919297.906    22691841.960          47.000  
        40.500  
  24693250.380   129763894.989   101114737.190    24693252.000          41.000  
        37.750  
  21941080.180   115301143.385    89845034.083    21941075.160          46.500  
        40.000  
  22998712.180   120859035.701    94175854.548    22998706.160          47.000  
        38.750  
  20281844.920   106581809.136    83050745.403    20281842.040          50.500  
        46.750  
  25520440.100   134110798.405   104501942.067    25520438.260          39.000  
        34.000  
  20287589.500   106611999.995    83074267.882    20287584.600          50.000  
        47.750  
  21974987.940   115479336.324    89983869.826    21974980.180          48.250  
        44.000  
  23916080.360   125679845.881    97932342.102    23916078.000          43.250  
        40.000  
 16 08 16 08 07 40.0000000  0  9G02G06G12G14G25G26G29G31G32         
  22693455.780   119254912.593                                          47.750  
                
  24698663.000   129792337.119   101136899.867    24698664.320          41.750  
        25.000  
  21946116.000   115327606.824    89865654.932    21946111.000          46.750  
        24.250  
  23001988.440   120876252.233    94189269.990    23001982.500          47.250  
        18.000  
  20283024.580   106588008.336    83055575.955    20283021.700          50.500  
        23.750  
  25514083.200   134077388.296                                          38.250  
                
  20285115.300   106598997.874    83064136.324    20285110.420          50.000  
        19.750  
  21970739.300   115457009.867    89966472.593    21970731.640          48.250  
        21.500  
  23921801.440   125709910.643    97955769.241    23921799.080          43.250  
        24.000  
 16 08 16 08 07 50.0000000  0  9G02G06G12G14G25G26G29G31G32         
  22695074.300   119263418.033    92932507.135    22695067.440          47.750  
        38.500  
  24704083.200   129820819.853   101159094.172    24704084.500          41.500  
        35.000  
  21951156.800   115354096.304    89886296.069    21951151.840          46.500  
        36.500  
  23005275.020   120893522.048    94202731.978    23005269.720          47.250  
        36.750  
  20284212.860   106594252.803    83060441.763    20284210.000          50.500  
        44.250  
  25507725.900   134043979.681   104449879.513    25507724.600          38.000  
        27.500  
  20282651.820   106586052.296    83054048.899    20282646.920          50.250  
        45.000  
  21966499.340   115434729.011    89949110.903    21966491.780          48.000  
        42.000  
  23927527.340   125740001.565    97979215.597    23927525.440          43.750  
        38.750  
 16 08 16 08 08 00.0000000  0  9G02G06G12G14G25G26G29G31G32         
  22696703.520   119271979.561    92939178.445    22696696.640          48.000  
        39.750  
  24709510.720   129849341.424   101181318.744    24709512.020          40.500  
        36.500  
  21956202.240   115380610.223    89906956.253    21956197.300          45.750  
        39.500  
  23008571.260   120910843.512    94216229.227    23008565.960          47.000  
        39.000  
  20285409.460   106600540.889    83065341.560    20285406.580          50.500  
        46.250  
  25501368.460   134010570.911   104423846.693    25501367.880          38.750  
        35.250  
  20280198.820   106573161.649    83044004.238    20280193.920          50.000  
        47.250  
  21962267.720   115412492.187    89931783.516    21962260.320          47.750  
        43.500  
  23933258.120   125770116.946    98002682.131    23933256.280          43.750  
        40.500  
 16 08 16 08 08 10.0000000  0  9G02G06G12G14G25G26G29G31G32         
  22698343.560   119280597.874    92945894.007    22698336.680          47.750  
        38.500  
  24714945.720   129877902.529   101203574.134    24714947.040          40.250  
        36.750  
  21961252.460   115407149.263    89927636.013    21961247.520          46.000  
        38.250  
  23011877.420   120928217.342    94229767.278    23011872.180          47.000  
        37.000  
  20286614.480   106606873.325    83070275.928    20286611.600          50.500  
        45.250  
  25495011.120   133977162.756   104397814.389    25495010.620          38.500  
        30.750  
  20277756.400   106560326.690    83034002.983    20277751.500          50.000  
        46.250  
  21958044.660   115390300.340    89914491.176    21958037.380          47.750  
        42.250  
  23938993.680   125800257.428    98026168.207    23938991.880          44.000  
        38.500  
 16 08 16 08 08 20.0000000  0  9G02G06G12G14G25G26G29G31G32         
  22699994.240   119289272.195    92952653.201    22699987.420          47.750  
        40.750  
  24720388.040   129906502.273   101225859.629    24720389.420          41.000  
        37.250  
  21966307.320   115433712.587    89948334.687    21966302.360          46.750  
        38.000  
  23015193.380   120945642.598    94243345.392    23015188.200          46.750  
        38.250  
  20287827.800   106613249.370    83075244.270    20287824.920          50.750  
        46.000  
  25488653.840   133943754.541   104371782.005    25488652.860          39.500  
        33.750  
  20275324.440   106547546.728    83024044.571    20275319.560          50.250  
        47.500  
  21953830.060   115368152.843    89897233.374    21953822.920          47.750  
        43.750  
  23944733.800   125830422.099    98049673.123    23944732.040          43.750  
        40.000  
 16 08 16 08 08 30.0000000  0  9G02G06G12G14G25G26G29G31G32         
  22701655.480   119298001.918    92959455.576    22701648.660          47.250  
        41.250  
  24725837.600   129935140.041   101248174.760    24725839.000          40.750  
        39.250  
  21971366.680   115460299.625    89969051.838    21971361.720          46.250  
        38.000  
  23018519.000   120963118.665    94256963.102    23018513.880          47.250  
        39.500  
  20289049.320   106619668.493    83080246.182    20289046.440          50.750  
        46.250  
  25482296.440   133910345.700   104345749.163    25482295.000          39.000  
        36.000  
  20272902.860   106534821.163    83014128.542    20272897.960          50.000  
        47.500  
  21949623.740   115346049.003    89880009.600    21949616.720          47.750  
        43.250  
  23950478.460   125860610.357    98073196.418    23950476.720          43.500  
        40.250  
 16 08 16 08 08 40.0000000  0  9G02G06G12G14G25G26G29G31G32         
  22703327.800   119306790.250                                          47.000  
                
  24731295.040   129963818.969   101270521.915    24731296.440          40.750  
        23.500  
  21976431.160   115486913.573    89989789.961    21976426.180          46.000  
        21.250  
  23021854.880   120980648.623    94270622.820    23021849.780          47.500  
        24.250  
  20290279.660   106626133.836    83085284.084    20290276.800          50.500  
        23.250  
  25475940.440   133876939.553                                          37.500  
                
  20270492.240   106522153.243    83004257.415    20270487.360          50.000  
        24.250  
  21945426.400   115323992.208    89862822.483    21945419.480          48.000  
        24.250  
  23956228.020   125890825.261    98096740.478    23956226.580          43.000  
        27.250  
 16 08 16 08 08 50.0000000  0  9G02G06G12G14G25G26G29G31G32         
  22705010.560   119315633.655    92973195.564    22705003.960          46.750  
        40.750  
  24736759.680   129992535.462   101292897.3881   24736760.360          41.250  
        36.500  
  21981500.280   115513550.970    90010546.380    21981494.720          46.000  
        37.000  
  23025200.740   120998229.021    94284325.795    23025195.680          47.500  
        38.000  
  20291518.100   106632642.016    83090355.405    20291515.240          50.500  
        46.000  
  25469583.460   133843532.654   104293668.970    25469580.560          39.250  
        33.500  
  20268091.920   106509539.597    82994428.627    20268087.040          50.000  
        46.750  
  21941237.380   115301979.114    89845669.400    21941230.560          48.000  
        42.250  
  23961981.980   125921063.253    98120303.529    23961980.620          42.750  
        37.500  
 16 08 16 08 09 00.0000000  0  9G02G06G12G14G25G26G29G31G32         
  22706704.460   119324535.204    92980131.812    22706697.880          47.250  
        39.000  
  24742232.100   130021292.611   101315305.548    24742232.720          41.500  
        37.250  
  21986574.320   115540215.033    90031323.550    21986568.660          46.500  
        36.500  
  23028556.420   121015862.842    94298066.451    23028551.320          47.250  
        38.250  
  20292765.300   106639196.091    83095462.477    20292762.440          50.500  
        46.000  
  25463226.940   133810128.064   104267639.477    25463224.300          40.000  
        36.750  
  20265702.540   106496983.284    82984644.486    20265697.660          49.750  
        47.250  
  21937057.280   115280012.911    89828552.880    21937050.560          47.750  
        43.500  
  23967740.960   125951327.333    98143885.921    23967739.640          43.000  
        39.250  
 16 08 16 08 09 10.0000000  0  9G02G06G12G14G25G26G29G31G32         
  22708408.660   119333490.965    92987110.332    22708402.080          47.250  
        42.750  
  24747711.440   130050086.301   101337742.140    24747712.020          41.000  
        38.750  
  21991652.620   115566901.590    90052118.251    21991646.940          46.250  
        38.750  
  23031921.520   121033546.149    94311845.647    23031916.380          47.250  
        42.750  
  20294020.480   106645792.170    83100602.284    20294017.640          50.250  
        48.250  
  25456870.100   133776721.899   104241608.740    25456867.460          37.750  
        36.250  
  20263323.300   106484480.333    82974901.929    20263318.440          49.750  
        49.500  
  21932885.360   115258089.757    89811469.909    21932878.740          47.750  
        46.250  
  23973504.180   125981613.458    98167485.478    23973502.860          44.250  
        41.750  
 16 08 16 08 09 20.0000000  0  9G02G06G12G14G25G26G29G31G32         
  22710123.640   119342503.348    92994132.958    22710117.080          47.250  
        41.000  
  24753198.200   130078918.952   101360209.118    24753198.700          40.250  
        38.000  
  21996735.680   115593613.106    90072932.412    21996729.960          46.000  
        37.750  
  23035296.520   121051281.355    94325665.262    23035291.340          47.250  
        39.750  
  20295284.120   106652432.635    83105776.668    20295281.280          50.250  
        46.750  
  25450513.460   133743316.813   104215578.770    25450510.780          35.000  
        35.250  
  20260954.720   106472033.311    82965202.953    20260949.840          49.750  
        48.000  
  21928722.120   115236212.198    89794422.459    21928715.600          47.750  
        44.750  
  23979272.080   126011923.969    98191104.036    23979270.740          45.000  
        39.750  
 16 08 16 08 09 30.0000000  0  9G02G06G12G14G25G26G29G31G32         
  22711849.540   119351573.006    93001200.212    22711842.960          47.500  
        40.000  
  24758692.440   130107791.155   101382706.932    24758692.920          39.500  
        38.000  
  22001823.660   115620350.482    90093766.720    22001817.900          46.000  
        37.500  
  23038681.480   121069069.006    94339525.759    23038676.220          47.250  
        39.000  
  20296556.340   106659118.262    83110986.256    20296553.520          50.500  
        46.750  
  25444157.000   133709913.350   104189550.059    25444154.200          37.750  
        34.750  
  20258596.880   106459642.946    82955548.136    20258592.040          50.000  
        48.000  
  21924567.720   115214380.986    89777411.127    21924561.280          48.250  
        44.500  
  23985044.760   126042259.468    98214742.071    23985043.380          45.000  
        40.000  
 16 08 16 08 09 40.0000000  0  9G02G06G12G14G25G26G29G31G32         
  22713585.860   119360697.429    93008310.148    22713579.260          47.500  
        13.500  
  24764193.700   130136700.250   101405233.472    24764194.160          39.250  
        20.000  
  22006915.980   115647110.778    90114618.895    22006910.200          45.250  
        14.500  
  23042075.880   121086906.362    94353424.991    23042070.560          47.250  
        16.250  
  20297836.680   106665846.449    83116228.985    20297833.860          50.750  
        22.750  
  25437800.360   133676509.050   104163520.726    25437797.540          40.000  
        17.250  
  20256249.380   106447306.679    82945935.450    20256244.540          50.000  
        24.000  
  21920421.680   115192593.688    89760434.005    21920415.340          48.500  
        18.000  
  23990821.700   126072617.267    98238397.482    23990820.300          45.250  
        16.750  
 16 08 16 08 09 50.0000000  0  9G02G06G12G14G25G26G29G31G32         
  22715333.160   119369878.966    93015462.5661   22715326.080          48.000  
        38.750  
  24769702.420   130165648.614   101427790.6221   24769702.680          39.750  
        34.250  
  22012013.120   115673896.487    90135489.8811   22012007.360          45.500  
        35.750  
  23045480.480   121104795.859    94367365.8251   23045474.800          47.500  
        36.250  
  20299125.560   106672619.636    83121506.793    20299122.760          50.750  
        44.500  
  25431444.180   133643106.392   104137500.7621   25431443.720          40.250  
        32.000  
  20253912.620   106435026.920    82936366.809    20253907.760          50.250  
        45.750  
  21916283.480   115170852.810    89743497.0521   21916278.840          49.000  
        41.750  
  23996603.540   126102999.688    98262072.0851   23996601.920          44.750  
        38.250  
 16 08 16 08 10 00.0000000  0  9G02G06G12G14G25G26G29G31G32         
  22717091.060   119379116.473    93022660.625    22717083.960          48.000  
        41.750  
  24775218.360   130194634.885   101450377.278    24775218.600          40.000  
        39.000  
  22017114.900   115700706.559    90156380.793    22017109.200          45.750  
        39.250  
  23048894.440   121122736.222    94381345.337    23048888.720          47.500  
        40.750  
  20300422.800   106679436.617    83126818.729    20300419.980          50.750  
        47.500  
  25425088.080   133609704.265   104111473.097    25425088.540          38.750  
        37.500  
  20251586.360   106422802.454    82926841.263    20251581.520          50.250  
        49.000  
  21912155.020   115149157.236    89726591.422    21912150.280          49.250  
        45.000  
  24002389.520   126133405.439    98285764.868    24002388.080          44.500  
        41.750  
 16 08 16 08 10 10.0000000  0  9G02G06G12G14G25G26G29G31G32         
  22718859.840   119388411.138    93029903.217    22718852.740          47.750  
        41.750  
  24780741.800   130223660.412   101472994.557    24780742.040          38.500  
        38.500  
  22022221.520   115727542.065    90177291.562    22022215.820          45.750  
        37.000  
  23052318.340   121140728.685    94395365.434    23052312.600          47.500  
        39.250  
  20301728.600   106686298.729    83132165.819    20301725.820          50.750  
        46.750  
  25418732.240   133576303.947   104085446.809    25418732.040          40.750  
        36.500  
  20249270.920   106410634.743    82917359.928    20249266.080          50.250  
        48.000  
  21908035.480   115127508.302    89709722.121    21908030.640          49.500  
        44.250  
  24008180.160   126163835.728    98309476.753    24008178.880          44.000  
        40.750  
 16 08 16 08 10 20.0000000  0  9G02G06G12G14G25G26G29G31G32         
  22720639.240   119397761.643    93037189.313    22720632.140          47.500  
        40.250  
  24786272.340   130252723.582   101495641.159    24786272.600          36.750  
        37.250  
  22027332.720   115754401.673    90198221.092    22027327.100          45.750  
        35.750  
  23055751.860   121158771.721    94409424.930    23055746.080          47.000  
        39.000  
  20303042.760   106693204.619    83137547.031    20303039.960          50.750  
        46.250  
  25412376.460   133542904.109   104059420.989    25412375.520          42.250  
        32.750  
  20246966.020   106398522.401    82907921.743    20246961.180          50.500  
        47.500  
  21903924.600   115105904.899    89692888.300    21903919.660          49.750  
        43.750  
  24013975.180   126194289.113    98333206.651    24013974.040          42.750  
        40.750  
 16 08 16 08 10 30.0000000  0  9G02G06G12G14G25G26G29G31G32         
  22722429.620   119407169.883    93044520.394    22722422.560          47.750  
        40.500  
  24791810.460   130281826.431   101518318.691    24791810.820          36.000  
        35.250  
  22032448.880   115781287.289    90219170.902    22032443.320          45.750  
        36.000  
  23059195.360   121176867.359    94423525.426    23059189.560          46.500  
        38.750  
  20304365.600   106700156.190    83142963.833    20304362.820          50.500  
        46.500  
  25406021.160   133509506.761   104033397.069    25406019.780          40.750  
        34.250  
  20244672.020   106386467.331    82898528.180    20244667.160          50.500  
        47.750  
  21899822.740   115084348.954    89676091.466    21899817.740          49.500  
        44.250  
